{
   "type": "FeatureCollection",
   "features": [
  {
    "type": "Feature",
    "geometry": {
       "type": "Point",
       "coordinates": [ -93.20,44, 44.731909]
    },
    "properties": {
    "name":"Apple Valley",
    "description":"Apple Valley",
    "ST_ABBV":"MN",
    "TYPE":"Fire District",
    "type":3,
    "MapBook":"Y",
    "LinkBook":"http://gis.co.dakota.mn.us/content/dakco/usng/1kfireortho/AppleValleyFire.pdf",
    "SrcLink":"http://gis.co.dakota.mn.us/content/dakco/USNG/er/maps.htm"
    }
  },
  {
    "type": "Feature",
    "geometry": {
       "type": "Point",
       "coordinates":  [ -93.217719,44.731909 ]
    },
    "properties": {
    "name":"Apple Valley",
    "description":"Apple Valley",
    "ST_ABBV":"MN",
    "TYPE":"City",
    "type":2,
    "MapBook":"Y",
    "LinkBook":"http://gis.co.dakota.mn.us/content/dakco/usng/1kfireortho/AppleValley.pdf",
    "SrcLink":"http://gis.co.dakota.mn.us/content/dakco/USNG/er/maps.htm"
    }
  },
  {
    "type": "Feature",
    "geometry": {
       "type": "Point",
       "coordinates":  [ -90.9798,33.7868 ]
    },
    "properties": {
    "name":"Beulah",
    "description":"Beulah",
    "ST_ABBV":"MS",
    "TYPE":"City",
    "type":2,
    "MapBook":"Y",
    "LinkBook":"https://hub.sharedgeo.org/projects/USNG/data/USNG_Atlases/Mississippi_Atlases/Atlas_Beulah_Str_Arial_USNG_MapBook1-6_8.5x11_Ed012009.pdf",
    "SrcLink":"https://hub.sharedgeo.org/projects/USNG/data/USNG_Atlases/"
    }
  },
  {
    "type": "Feature",
    "geometry": {
       "type": "Point",
       "coordinates":  [ -101.7779,47.2633 ]
    },
    "properties": {
    "name":"Beulah",
    "description":"Beulah",
    "ST_ABBV":"ND",
    "TYPE":"City",
    "type":2,
    "MapBook":"Y",
    "LinkBook":"https://hub.sharedgeo.org/projects/USNG/data/USNG_Atlases/North_Dakota_Atlases/Beulah_ND_Atlas_18March2011.zip",
    "SrcLink":"https://hub.sharedgeo.org/projects/USNG/data/USNG_Atlases/"
    }
  },
  {
    "type": "Feature",
    "geometry": {
       "type": "Point",
       "coordinates":  [ -100.7837,46.8083 ]
    },
    "properties": {
    "name":"Bismark",
    "description":"Bismark",
    "ST_ABBV":"ND",
    "TYPE":"City",
    "type":2,
    "MapBook":"Y",
    "LinkBook":"https://hub.sharedgeo.org/projects/USNG/data/USNG_Atlases/North_Dakota_Atlases/Bismark_ND_Atlas_18March2011.zip",
    "SrcLink":"https://hub.sharedgeo.org/projects/USNG/data/USNG_Atlases/"
    }
  },
  {
    "type": "Feature",
    "geometry": {
       "type": "Point",
       "coordinates":  [ -96.5869,46.2628 ]
    },
    "properties": {
    "name":"Brekenridge",
    "description":"Brekenridge",
    "ST_ABBV":"MN",
    "TYPE":"City",
    "type":2,
    "MapBook":"Y",
    "LinkBook":"https://hub.sharedgeo.org/projects/USNG/data/USNG_Atlases/Minnesota_Atlases/Brekenridge_MN_Atlas_18March2011.zip",
    "SrcLink":"https://hub.sharedgeo.org/projects/USNG/data/USNG_Atlases/"
    }
  },
  {
    "type": "Feature",
    "geometry": {
       "type": "Point",
       "coordinates":  [ -93.2777,44.767742 ]
    },
    "properties": {
    "name":"Burnsville",
    "description":"Burnsville",
    "ST_ABBV":"MN",
    "TYPE":"Fire District",
    "type":3,
    "MapBook":"Y",
    "LinkBook":"http://gis.co.dakota.mn.us/content/dakco/usng/1kfireortho/BurnsvilleFire.pdf",
    "SrcLink":"http://gis.co.dakota.mn.us/content/dakco/USNG/er/maps.htm"
    }
  },
  {
    "type": "Feature",
    "geometry": {
       "type": "Point",
       "coordinates":  [ -93.287,44.767742 ]
    },
    "properties": {
    "name":"Burnsville",
    "description":"Burnsville",
    "ST_ABBV":"MN",
    "TYPE":"City",
    "type":2,
    "MapBook":"Y",
    "LinkBook":"http://gis.co.dakota.mn.us/content/dakco/usng/1kfireortho/Burnsville.pdf",
    "SrcLink":"http://gis.co.dakota.mn.us/content/dakco/USNG/er/maps.htm"
    }
  },
  {
    "type": "Feature",
    "geometry": {
       "type": "Point",
       "coordinates":  [ -117.3205,33.3178 ]
    },
    "properties": {
    "name":"Camp Pendelton",
    "description":"Camp Pendelton",
    "ST_ABBV":"CA",
    "TYPE":"Area",
    "type":3,
    "MapBook":"Y",
    "LinkBook":"https://hub.sharedgeo.org/projects/USNG/data/USNG_Atlases/California_Atlases/Atlas_Camp_Pendleton_Street_USNG_1-25_8-5x11_Ed082008.pdf",
    "SrcLink":"https://hub.sharedgeo.org/projects/USNG/data/USNG_Atlases/"
    }
  },
  {
    "type": "Feature",
    "geometry": {
       "type": "Point",
       "coordinates":  [ -92.9055,44.5069 ]
    },
    "properties": {
    "name":"Cannon Falls",
    "description":"Cannon Falls",
    "ST_ABBV":"MN",
    "TYPE":"Fire District",
    "type":3,
    "MapBook":"Y",
    "LinkBook":"http://gis.co.dakota.mn.us/content/dakco/usng/1kfireortho/CannonFallsFire.pdf",
    "SrcLink":"http://gis.co.dakota.mn.us/content/dakco/USNG/er/maps.htm"
    }
  },
  {
    "type": "Feature",
    "geometry": {
       "type": "Point",
       "coordinates":  [ -81.6944,41.4993 ]
    },
    "properties": {
    "name":"Cleveland",
    "description":"Cleveland",
    "ST_ABBV":"OH",
    "TYPE":"City",
    "type":2,
    "MapBook":"Y",
    "LinkBook":"https://hub.sharedgeo.org/projects/USNG/data/USNG_Atlases/Ohio_Atlases/Cleveland_Ohio_Mapbook_April_2009.pdf",
    "SrcLink":"https://hub.sharedgeo.org/projects/USNG/data/USNG_Atlases/"
    }
  },
  {
    "type": "Feature",
    "geometry": {
       "type": "Point",
       "coordinates":  [ -90.7355,33.7454 ]
    },
    "properties": {
    "name":"Delta State University (DSU)",
    "description":"Delta State University",
    "ST_ABBV":"MS",
    "TYPE":"Area",
    "type":3,
    "MapBook":"Y",
    "LinkBook":"https://hub.sharedgeo.org/projects/USNG/data/USNG_Atlases/Mississippi_Atlases/DSU/Atlas_DeltaStateUniversity_Str_Arial_Map_Book_1-6_8.5x11_Ed012009.pdf",
    "SrcLink":"https://hub.sharedgeo.org/projects/USNG/data/USNG_Atlases/"
    }
  },
  {
    "type": "Feature",
    "geometry": {
       "type": "Point",
       "coordinates":  [ -97.1778,48.5711 ]
    },
    "properties": {
    "name":"Drayton",
    "description":"Drayton",
    "ST_ABBV":"ND",
    "TYPE":"City",
    "type":2,
    "MapBook":"Y",
    "LinkBook":"https://hub.sharedgeo.org/projects/USNG/data/USNG_Atlases/North_Dakota_Atlases/Drayton_ND_Atlas_18March2011.zip",
    "SrcLink":"https://hub.sharedgeo.org/projects/USNG/data/USNG_Atlases/"
    }
  },
  {
    "type": "Feature",
    "geometry": {
       "type": "Point",
       "coordinates":  [ -93.1668,44.804132 ]
    },
    "properties": {
    "name":"Eagan",
    "description":"Eagan",
    "ST_ABBV":"MN",
    "TYPE":"Fire District",
    "type":3,
    "MapBook":"Y",
    "LinkBook":"http://gis.co.dakota.mn.us/content/dakco/usng/1kfireortho/EaganFire.pdf",
    "SrcLink":"http://gis.co.dakota.mn.us/content/dakco/USNG/er/maps.htm"
    }
  },
  {
    "type": "Feature",
    "geometry": {
       "type": "Point",
       "coordinates":  [ -93.18,44.804132 ]
    },
    "properties": {
    "name":"Eagan",
    "description":"Eagan",
    "ST_ABBV":"MN",
    "TYPE":"City",
    "type":2,
    "MapBook":"Y",
    "LinkBook":"http://gis.co.dakota.mn.us/content/dakco/usng/1kfireortho/Eagan.pdf",
    "SrcLink":"http://gis.co.dakota.mn.us/content/dakco/USNG/er/maps.htm"
    }
  },
  {
    "type": "Feature",
    "geometry": {
       "type": "Point",
       "coordinates":  [ -97.0093,47.9312 ]
    },
    "properties": {
    "name":"East Grand Forks",
    "description":"East Grand Forks",
    "ST_ABBV":"MN",
    "TYPE":"City",
    "type":2,
    "MapBook":"Y",
    "LinkBook":"https://hub.sharedgeo.org/projects/USNG/data/USNG_Atlases/Minnesota_Atlases/EastGrandFokrs_MN_Atlas_18March2011.zip",
    "SrcLink":"https://hub.sharedgeo.org/projects/USNG/data/USNG_Atlases/"
    }
  },
  {
    "type": "Feature",
    "geometry": {
       "type": "Point",
       "coordinates":  [ -93.3499,44.8897 ]
    },
    "properties": {
    "name":"Edina",
    "description":"Edina",
    "ST_ABBV":"MN",
    "TYPE":"City",
    "type":2,
    "MapBook":"Y",
    "LinkBook":"https://hub.sharedgeo.org/projects/USNG/data/USNG_Atlases/Minnesota_Atlases/Atlas_MN_CityofEdina_1-6K_USNG_100m_Mapbook.pdf",
    "SrcLink":"https://hub.sharedgeo.org/projects/USNG/data/USNG_Atlases/"
    }
  },
  {
    "type": "Feature",
    "geometry": {
       "type": "Point",
       "coordinates":  [ -96.7898,46.8772 ]
    },
    "properties": {
    "name":"Fargo",
    "description":"Fargo",
    "ST_ABBV":"ND",
    "TYPE":"City",
    "type":2,
    "MapBook":"Y",
    "LinkBook":"https://hub.sharedgeo.org/projects/USNG/data/USNG_Atlases/North_Dakota_Atlases/Fargo_ND_Atlas_18March2011.zip",
    "SrcLink":"https://hub.sharedgeo.org/projects/USNG/data/USNG_Atlases/"
    }
  },
  {
    "type": "Feature",
    "geometry": {
       "type": "Point",
       "coordinates":  [ -93.14355,44.640243 ]
    },
    "properties": {
    "name":"Farmington",
    "description":"Farmington",
    "ST_ABBV":"MN",
    "TYPE":"Fire District",
    "type":3,
    "MapBook":"Y",
    "LinkBook":"http://gis.co.dakota.mn.us/content/dakco/usng/1kfireortho/FarmingtonFire.pdf",
    "SrcLink":"http://gis.co.dakota.mn.us/content/dakco/USNG/er/maps.htm"
    }
  },
  {
    "type": "Feature",
    "geometry": {
       "type": "Point",
       "coordinates":  [ -93.15355,44.640243 ]
    },
    "properties": {
    "name":"Farmington",
    "description":"Farmington",
    "ST_ABBV":"MN",
    "TYPE":"City",
    "type":2,
    "MapBook":"Y",
    "LinkBook":"http://gis.co.dakota.mn.us/content/dakco/usng/1kfireortho/Farmington.pdf",
    "SrcLink":"http://gis.co.dakota.mn.us/content/dakco/USNG/er/maps.htm"
    }
  },
  {
    "type": "Feature",
    "geometry": {
       "type": "Point",
       "coordinates":  [ -97.9262,46.5208 ]
    },
    "properties": {
    "name":"Fort Ransom",
    "description":"Fort Ransom",
    "ST_ABBV":"ND",
    "TYPE":"City",
    "type":2,
    "MapBook":"Y",
    "LinkBook":"https://hub.sharedgeo.org/projects/USNG/data/USNG_Atlases/North_Dakota_Atlases/FortRansom_ND_Atlas_18March2011.zip",
    "SrcLink":"https://hub.sharedgeo.org/projects/USNG/data/USNG_Atlases/"
    }
  },
  {
    "type": "Feature",
    "geometry": {
       "type": "Point",
       "coordinates":  [ -94.7977,29.3013 ]
    },
    "properties": {
    "name":"Galveston",
    "description":"Galveston",
    "ST_ABBV":"TX",
    "TYPE":"City",
    "type":2,
    "MapBook":"Y",
    "LinkBook":"https://hub.sharedgeo.org/projects/USNG/data/USNG_Atlases/Texas_Atlases/Atlas_City_Of_Galveston_TX_Streets-n-Infrastructure_USNG_1-25_8-5x11_Ed09122008.pdf",
    "SrcLink":"https://hub.sharedgeo.org/projects/USNG/data/USNG_Atlases/"
    }
  },
  {
    "type": "Feature",
    "geometry": {
       "type": "Point",
       "coordinates":  [ -97.4106,48.4122 ]
    },
    "properties": {
    "name":"Grafton",
    "description":"Grafton",
    "ST_ABBV":"ND",
    "TYPE":"City",
    "type":2,
    "MapBook":"Y",
    "LinkBook":"https://hub.sharedgeo.org/projects/USNG/data/USNG_Atlases/North_Dakota_Atlases/Grafton_ND_Atlas_18March2011.zip",
    "SrcLink":"https://hub.sharedgeo.org/projects/USNG/data/USNG_Atlases/"
    }
  },
  {
    "type": "Feature",
    "geometry": {
       "type": "Point",
       "coordinates":  [ -97.0329,47.9253 ]
    },
    "properties": {
    "name":"Grand Forks",
    "description":"Grand Forks",
    "ST_ABBV":"ND",
    "TYPE":"City",
    "type":2,
    "MapBook":"Y",
    "LinkBook":"https://hub.sharedgeo.org/projects/USNG/data/USNG_Atlases/North_Dakota_Atlases/GrandForks_ND_Atlas_18March2011.zip",
    "SrcLink":"https://hub.sharedgeo.org/projects/USNG/data/USNG_Atlases/"
    }
  },
  {
    "type": "Feature",
    "geometry": {
       "type": "Point",
       "coordinates":  [ -93.06718757,44.56205713 ]
    },
    "properties": {
    "name":"Hampton / Randolph",
    "description":"Hampton / Randolph",
    "ST_ABBV":"MN",
    "TYPE":"Fire District",
    "type":3,
    "MapBook":"Y",
    "LinkBook":"http://gis.co.dakota.mn.us/content/dakco/usng/1kfireortho/HamptonRandolphFire.pdf",
    "SrcLink":"http://gis.co.dakota.mn.us/content/dakco/USNG/er/maps.htm"
    }
  },
  {
    "type": "Feature",
    "geometry": {
       "type": "Point",
       "coordinates":  [ -92.8514,44.7443 ]
    },
    "properties": {
    "name":"Hastings",
    "description":"Hastings",
    "ST_ABBV":"MN",
    "TYPE":"City",
    "type":2,
    "MapBook":"Y",
    "LinkBook":"http://gis.co.dakota.mn.us/content/dakco/usng/1kfireortho/Hastings.pdf",
    "SrcLink":"http://gis.co.dakota.mn.us/content/dakco/USNG/er/maps.htm"
    }
  },
  {
    "type": "Feature",
    "geometry": {
       "type": "Point",
       "coordinates":  [ -95.3698,29.7604 ]
    },
    "properties": {
    "name":"Houston",
    "description":"Houston",
    "ST_ABBV":"TX",
    "TYPE":"City",
    "type":2,
    "MapBook":"Y",
    "LinkBook":"https://hub.sharedgeo.org/projects/USNG/data/USNG_Atlases/Texas_Atlases/Atlas_City_of_Houston_TX_Streets-n-Infrastructure_USNG_1-25_8-5x11_Ed09112008.pdf",
    "SrcLink":"https://hub.sharedgeo.org/projects/USNG/data/USNG_Atlases/"
    }
  },
  {
    "type": "Feature",
    "geometry": {
       "type": "Point",
       "coordinates":  [ -123.364899,43.123039 ]
    },
    "properties": {
    "name":"Interstate 5 between Roseburg and Riddle",
    "description":"Interstate 5 between Roseburg and Riddle",
    "ST_ABBV":"OR",
    "TYPE":"Area",
    "type":3,
    "MapBook":"Y",
    "LinkBook":"https://hub.sharedgeo.org/projects/USNG/data/USNG_Atlases/Oregon_Atlases/Atlas_Riddle_Roseburg_I-5_USNG_20Sept2011.zip",
    "SrcLink":"https://hub.sharedgeo.org/projects/USNG/data/USNG_Atlases/"
    }
  },
  {
    "type": "Feature",
    "geometry": {
       "type": "Point",
       "coordinates":  [ -93.04271495,44.848022 ]
    },
    "properties": {
    "name":"Inver Grove Heights",
    "description":"Inver Grove Heights",
    "ST_ABBV":"MN",
    "TYPE":"Fire District",
    "type":3,
    "MapBook":"Y",
    "LinkBook":"http://gis.co.dakota.mn.us/content/dakco/usng/1kfireortho/InverGroveHeightsFire.pdf",
    "SrcLink":"http://gis.co.dakota.mn.us/content/dakco/USNG/er/maps.htm"
    }
  },
  {
    "type": "Feature",
    "geometry": {
       "type": "Point",
       "coordinates":  [ -93.05271495,44.848022 ]
    },
    "properties": {
    "name":"Inver Grove Heights",
    "description":"Inver Grove Heights",
    "ST_ABBV":"MN",
    "TYPE":"City",
    "type":2,
    "MapBook":"Y",
    "LinkBook":"http://gis.co.dakota.mn.us/content/dakco/usng/1kfireortho/InverGroveHeights.pdf",
    "SrcLink":"http://gis.co.dakota.mn.us/content/dakco/USNG/er/maps.htm"
    }
  },
  {
    "type": "Feature",
    "geometry": {
       "type": "Point",
       "coordinates":  [ -98.7084,46.9105 ]
    },
    "properties": {
    "name":"Jamestown",
    "description":"Jamestown",
    "ST_ABBV":"ND",
    "TYPE":"City",
    "type":2,
    "MapBook":"Y",
    "LinkBook":"https://hub.sharedgeo.org/projects/USNG/data/USNG_Atlases/North_Dakota_Atlases/Jamestown_ND_Atlas_18March2011.zip",
    "SrcLink":"https://hub.sharedgeo.org/projects/USNG/data/USNG_Atlases/"
    }
  },
  {
    "type": "Feature",
    "geometry": {
       "type": "Point",
       "coordinates":  [ -98.2945,46.3572 ]
    },
    "properties": {
    "name":"La Moure",
    "description":"La Moure",
    "ST_ABBV":"ND",
    "TYPE":"City",
    "type":2,
    "MapBook":"Y",
    "LinkBook":"https://hub.sharedgeo.org/projects/USNG/data/USNG_Atlases/North_Dakota_Atlases/LaMoure_ND_Atlas_18March2011.zip",
    "SrcLink":"https://hub.sharedgeo.org/projects/USNG/data/USNG_Atlases/"
    }
  },
  {
    "type": "Feature",
    "geometry": {
       "type": "Point",
       "coordinates":  [ -93.2427,44.649687 ]
    },
    "properties": {
    "name":"Lakeville",
    "description":"Lakeville",
    "ST_ABBV":"MN",
    "TYPE":"Fire District",
    "type":3,
    "MapBook":"Y",
    "LinkBook":"http://gis.co.dakota.mn.us/content/dakco/usng/1kfireortho/LakevilleFire.pdf",
    "SrcLink":"http://gis.co.dakota.mn.us/content/dakco/USNG/er/maps.htm"
    }
  },
  {
    "type": "Feature",
    "geometry": {
       "type": "Point",
       "coordinates":  [ -93.25272,44.649687 ]
    },
    "properties": {
    "name":"Lakeville",
    "description":"Lakeville",
    "ST_ABBV":"MN",
    "TYPE":"City",
    "type":2,
    "MapBook":"Y",
    "LinkBook":"http://gis.co.dakota.mn.us/content/dakco/usng/1kfireortho/Lakeville.pdf",
    "SrcLink":"http://gis.co.dakota.mn.us/content/dakco/USNG/er/maps.htm"
    }
  },
  {
    "type": "Feature",
    "geometry": {
       "type": "Point",
       "coordinates":  [ -93.1261,44.9161 ]
    },
    "properties": {
    "name":"Lilydale",
    "description":"Lilydale",
    "ST_ABBV":"MN",
    "TYPE":"City",
    "type":2,
    "MapBook":"Y",
    "LinkBook":"http://gis.co.dakota.mn.us/content/dakco/usng/1kfireortho/Lilydale.pdf",
    "SrcLink":"http://gis.co.dakota.mn.us/content/dakco/USNG/er/maps.htm"
    }
  },
  {
    "type": "Feature",
    "geometry": {
       "type": "Point",
       "coordinates":  [ -100.2329,46.2667 ]
    },
    "properties": {
    "name":"Linton",
    "description":"Linton",
    "ST_ABBV":"ND",
    "TYPE":"City",
    "type":2,
    "MapBook":"Y",
    "LinkBook":"https://hub.sharedgeo.org/projects/USNG/data/USNG_Atlases/North_Dakota_Atlases/Linton_ND_Atlas_18march2011.zip",
    "SrcLink":"https://hub.sharedgeo.org/projects/USNG/data/USNG_Atlases/"
    }
  },
  {
    "type": "Feature",
    "geometry": {
       "type": "Point",
       "coordinates":  [ -97.6812,46.4416 ]
    },
    "properties": {
    "name":"Lisbon",
    "description":"Lisbon",
    "ST_ABBV":"ND",
    "TYPE":"City",
    "type":2,
    "MapBook":"Y",
    "LinkBook":"https://hub.sharedgeo.org/projects/USNG/data/USNG_Atlases/North_Dakota_Atlases/Lisbon_ND_Atlas_18March2011.zip",
    "SrcLink":"https://hub.sharedgeo.org/projects/USNG/data/USNG_Atlases/"
    }
  },
  {
    "type": "Feature",
    "geometry": {
       "type": "Point",
       "coordinates":  [ -90.049,35.1495 ]
    },
    "properties": {
    "name":"Memphis",
    "description":"Memphis",
    "ST_ABBV":"TN",
    "TYPE":"City",
    "type":2,
    "MapBook":"Y",
    "LinkBook":"https://hub.sharedgeo.org/projects/USNG/data/USNG_Atlases/Tennessee_Atlases/Atlas_City_of_Memphis_TN_Street_USNG_1-25_8-5x11_Ed01142009_15-5MB.pdf",
    "SrcLink":"https://hub.sharedgeo.org/projects/USNG/data/USNG_Atlases/"
    }
  },
  {
    "type": "Feature",
    "geometry": {
       "type": "Point",
       "coordinates":  [ -93.1644,44.8872 ]
    },
    "properties": {
    "name":"Mendota",
    "description":"Mendota",
    "ST_ABBV":"MN",
    "TYPE":"City",
    "type":2,
    "MapBook":"Y",
    "LinkBook":"http://gis.co.dakota.mn.us/content/dakco/usng/1kfireortho/Mendota.pdf",
    "SrcLink":"http://gis.co.dakota.mn.us/content/dakco/USNG/er/maps.htm"
    }
  },
  {
    "type": "Feature",
    "geometry": {
       "type": "Point",
       "coordinates":  [ -93.138275,44.883577 ]
    },
    "properties": {
    "name":"Mendota Heights",
    "description":"Mendota Heights",
    "ST_ABBV":"MN",
    "TYPE":"Fire District",
    "type":3,
    "MapBook":"Y",
    "LinkBook":"http://gis.co.dakota.mn.us/content/dakco/usng/1kfireortho/MendotaHeightsFire.pdf",
    "SrcLink":"http://gis.co.dakota.mn.us/content/dakco/USNG/er/maps.htm"
    }
  },
  {
    "type": "Feature",
    "geometry": {
       "type": "Point",
       "coordinates":  [ -93.149275,44.883577 ]
    },
    "properties": {
    "name":"Mendota Heights",
    "description":"Mendota Heights",
    "ST_ABBV":"MN",
    "TYPE":"City",
    "type":2,
    "MapBook":"Y",
    "LinkBook":"http://gis.co.dakota.mn.us/content/dakco/usng/1kfireortho/MendotaHeights.pdf",
    "SrcLink":"http://gis.co.dakota.mn.us/content/dakco/USNG/er/maps.htm"
    }
  },
  {
    "type": "Feature",
    "geometry": {
       "type": "Point",
       "coordinates":  [ -92.813,44.6005 ]
    },
    "properties": {
    "name":"Miesville",
    "description":"Miesville",
    "ST_ABBV":"MN",
    "TYPE":"Fire District",
    "type":3,
    "MapBook":"Y",
    "LinkBook":"http://gis.co.dakota.mn.us/content/dakco/usng/1kfireortho/MiesvilleFire.pdf",
    "SrcLink":"http://gis.co.dakota.mn.us/content/dakco/USNG/er/maps.htm"
    }
  },
  {
    "type": "Feature",
    "geometry": {
       "type": "Point",
       "coordinates":  [ -101.2923,48.233 ]
    },
    "properties": {
    "name":"Minot",
    "description":"Minot",
    "ST_ABBV":"ND",
    "TYPE":"City",
    "type":2,
    "MapBook":"Y",
    "LinkBook":"https://hub.sharedgeo.org/projects/USNG/data/USNG_Atlases/North_Dakota_Atlases/Minot_ND_Atlas_18March2011.zip",
    "SrcLink":"https://hub.sharedgeo.org/projects/USNG/data/USNG_Atlases/"
    }
  },
  {
    "type": "Feature",
    "geometry": {
       "type": "Point",
       "coordinates":  [ -117.1382,32.8767 ]
    },
    "properties": {
    "name":"Miramar Airbase",
    "description":"Miramar",
    "ST_ABBV":"CA",
    "TYPE":"Area",
    "type":3,
    "MapBook":"Y",
    "LinkBook":"https://hub.sharedgeo.org/projects/USNG/data/USNG_Atlases/California_Atlases/Atlas_Miramar_Airbase_USNG_MultiScale_85x11_A4_Ed3Jun2010.pdf",
    "SrcLink":"https://hub.sharedgeo.org/projects/USNG/data/USNG_Atlases/"
    }
  },
  {
    "type": "Feature",
    "geometry": {
       "type": "Point",
       "coordinates":  [ -96.7678,46.8738 ]
    },
    "properties": {
    "name":"Moorhead",
    "description":"Moorhead",
    "ST_ABBV":"MN",
    "TYPE":"City",
    "type":2,
    "MapBook":"Y",
    "LinkBook":"https://hub.sharedgeo.org/projects/USNG/data/USNG_Atlases/Minnesota_Atlases/Moorhead_MN_Atlas_18March2011.zip",
    "SrcLink":"https://hub.sharedgeo.org/projects/USNG/data/USNG_Atlases/"
    }
  },
  {
    "type": "Feature",
    "geometry": {
       "type": "Point",
       "coordinates":  [ -97.5548,48.9861 ]
    },
    "properties": {
    "name":"Neche",
    "description":"Neche",
    "ST_ABBV":"ND",
    "TYPE":"City",
    "type":2,
    "MapBook":"Y",
    "LinkBook":"https://hub.sharedgeo.org/projects/USNG/data/USNG_Atlases/North_Dakota_Atlases/Neche_ND_Atlas_18March2011.zip",
    "SrcLink":"https://hub.sharedgeo.org/projects/USNG/data/USNG_Atlases/"
    }
  },
  {
    "type": "Feature",
    "geometry": {
       "type": "Point",
       "coordinates":  [ -90.0715,29.9511 ]
    },
    "properties": {
    "name":"New Orleans",
    "description":"New Orleans",
    "ST_ABBV":"LA",
    "TYPE":"City",
    "type":2,
    "MapBook":"Y",
    "LinkBook":"https://hub.sharedgeo.org/projects/USNG/data/USNG_Atlases/Louisiana_Atlases/Atlas_City_Of_New_Orleans_Street_USNG_1-25_8.5x11_Ed10162008.pdf",
    "SrcLink":"https://hub.sharedgeo.org/projects/USNG/data/USNG_Atlases/"
    }
  },
  {
    "type": "Feature",
    "geometry": {
       "type": "Point",
       "coordinates":  [ -74.006,40.7128 ]
    },
    "properties": {
    "name":"New York City",
    "description":"New York City",
    "ST_ABBV":"NY",
    "TYPE":"City",
    "type":2,
    "MapBook":"Y",
    "LinkBook":"https://hub.sharedgeo.org/projects/USNG/data/USNG_Atlases/NewYork_Atlases/Atlas_NewYorkCity_USNG_22Sept2011.zip",
    "SrcLink":"https://hub.sharedgeo.org/projects/USNG/data/USNG_Atlases/"
    }
  },
  {
    "type": "Feature",
    "geometry": {
       "type": "Point",
       "coordinates":  [ -93.1616,44.4583 ]
    },
    "properties": {
    "name":"Northfield",
    "description":"Northfield",
    "ST_ABBV":"MN",
    "TYPE":"Fire District",
    "type":3,
    "MapBook":"Y",
    "LinkBook":"http://gis.co.dakota.mn.us/content/dakco/usng/1kfireortho/NorthfieldFire.pdf",
    "SrcLink":"http://gis.co.dakota.mn.us/content/dakco/USNG/er/maps.htm"
    }
  },
  {
    "type": "Feature",
    "geometry": {
       "type": "Point",
       "coordinates":  [ -104.7614,39.5186 ]
    },
    "properties": {
    "name":"Parker (Fire Map)",
    "description":"Parker",
    "ST_ABBV":"CO",
    "TYPE":"City",
    "type":2,
    "MapBook":"Y",
    "LinkBook":"https://hub.sharedgeo.org/projects/USNG/data/USNG_Atlases/Colorado_Atlases/Parker_Fire_USNG_Map_Book_ED011609.pdf",
    "SrcLink":"https://hub.sharedgeo.org/projects/USNG/data/USNG_Atlases/Colorado_Atlases/"
    }
  },
  {
    "type": "Feature",
    "geometry": {
       "type": "Point",
       "coordinates":  [ -97.2437,48.9664 ]
    },
    "properties": {
    "name":"Pembina",
    "description":"Pembina",
    "ST_ABBV":"ND",
    "TYPE":"City",
    "type":2,
    "MapBook":"Y",
    "LinkBook":"https://hub.sharedgeo.org/projects/USNG/data/USNG_Atlases/North_Dakota_Atlases/Pembina_ND_Atlas_18March2011.zip",
    "SrcLink":"https://hub.sharedgeo.org/projects/USNG/data/USNG_Atlases/"
    }
  },
  {
    "type": "Feature",
    "geometry": {
       "type": "Point",
       "coordinates":  [ -78.6419,35.7731 ]
    },
    "properties": {
    "name":"Raleigh Convention Center",
    "description":"Raleigh Convention Center",
    "ST_ABBV":"NC",
    "TYPE":"Area",
    "type":3,
    "MapBook":"Y",
    "LinkBook":"https://hub.sharedgeo.org/projects/USNG/data/USNG_Atlases/North_Carolina_Atlases/Raleigh_NC_ConventionCenter_USNG_SheetMap_10Augu2010.pdf",
    "SrcLink":"https://hub.sharedgeo.org/projects/USNG/data/USNG_Atlases/"
    }
  },
  {
    "type": "Feature",
    "geometry": {
       "type": "Point",
       "coordinates":  [ -97.0638,47.9977 ]
    },
    "properties": {
    "name":"Flood Risk",
    "description":"Red River",
    "ST_ABBV":"MN",
    "TYPE":"Area",
    "type":3,
    "MapBook":"Y",
    "LinkBook":"https://hub.sharedgeo.org/projects/USNG/data/USNG_Atlases/Minnesota_Atlases/MinnesotaFloodRiskAreas_Atlas_18March2011.zip",
    "SrcLink":"https://hub.sharedgeo.org/projects/USNG/data/USNG_Atlases/"
    }
  },
  {
    "type": "Feature",
    "geometry": {
       "type": "Point",
       "coordinates":  [ -93.12577,44.73941 ]
    },
    "properties": {
    "name":"Rosemount",
    "description":"Rosemount",
    "ST_ABBV":"MN",
    "TYPE":"Fire District",
    "type":3,
    "MapBook":"Y",
    "LinkBook":"http://gis.co.dakota.mn.us/content/dakco/usng/1kfireortho/RosemountFire.pdf",
    "SrcLink":"http://gis.co.dakota.mn.us/content/dakco/USNG/er/maps.htm"
    }
  },
  {
    "type": "Feature",
    "geometry": {
       "type": "Point",
       "coordinates":  [ -93.135772,44.73941 ]
    },
    "properties": {
    "name":"Rosemount",
    "description":"Rosemount",
    "ST_ABBV":"MN",
    "TYPE":"City",
    "type":2,
    "MapBook":"Y",
    "LinkBook":"http://gis.co.dakota.mn.us/content/dakco/usng/1kfireortho/Rosemount.pdf",
    "SrcLink":"http://gis.co.dakota.mn.us/content/dakco/USNG/er/maps.htm"
    }
  },
  {
    "type": "Feature",
    "geometry": {
       "type": "Point",
       "coordinates":  [ -101.0543,48.0888 ]
    },
    "properties": {
    "name":"Sawyer",
    "description":"Sawyer",
    "ST_ABBV":"ND",
    "TYPE":"City",
    "type":2,
    "MapBook":"Y",
    "LinkBook":"https://hub.sharedgeo.org/projects/USNG/data/USNG_Atlases/North_Dakota_Atlases/Sawyer_ND_Atlas_18March2011.zip",
    "SrcLink":"https://hub.sharedgeo.org/projects/USNG/data/USNG_Atlases/"
    }
  },
  {
    "type": "Feature",
    "geometry": {
       "type": "Point",
       "coordinates":  [ -93.10269606,44.90007472 ]
    },
    "properties": {
    "name":"South Metro",
    "description":"South Metro",
    "ST_ABBV":"MN",
    "TYPE":"Fire District",
    "type":3,
    "MapBook":"Y",
    "LinkBook":"http://gis.co.dakota.mn.us/content/dakco/usng/1kfireortho/SouthMetroFire.pdf",
    "SrcLink":"http://gis.co.dakota.mn.us/content/dakco/USNG/er/maps.htm"
    }
  },
  {
    "type": "Feature",
    "geometry": {
       "type": "Point",
       "coordinates":  [ -93.0276,44.876 ]
    },
    "properties": {
    "name":"South St. Paul",
    "description":"South St. Paul",
    "ST_ABBV":"MN",
    "TYPE":"City",
    "type":2,
    "MapBook":"Y",
    "LinkBook":"http://gis.co.dakota.mn.us/content/dakco/usng/1kfireortho/SouthStPaul.pdf",
    "SrcLink":"http://gis.co.dakota.mn.us/content/dakco/USNG/er/maps.htm"
    }
  },
  {
    "type": "Feature",
    "geometry": {
       "type": "Point",
       "coordinates":  [ -93.0908,44.8691 ]
    },
    "properties": {
    "name":"Sunfish Lake",
    "description":"Sunfish Lake",
    "ST_ABBV":"MN",
    "TYPE":"City",
    "type":2,
    "MapBook":"Y",
    "LinkBook":"http://gis.co.dakota.mn.us/content/dakco/usng/1kfireortho/SunfishLake.pdf",
    "SrcLink":"http://gis.co.dakota.mn.us/content/dakco/USNG/er/maps.htm"
    }
  },
  {
    "type": "Feature",
    "geometry": {
       "type": "Point",
       "coordinates":  [ -82.4572,27.9506 ]
    },
    "properties": {
    "name":"Tampa",
    "description":"Tampa",
    "ST_ABBV":"FL",
    "TYPE":"City",
    "type":2,
    "MapBook":"Y",
    "LinkBook":"https://hub.sharedgeo.org/projects/USNG/data/USNG_Atlases/Florida_Atlases/Atlas_Tampa_FL_Street_USNG_1-24k_8.5x11_ED04172009_16MB.pdf",
    "SrcLink":"http://www.floridadisaster.org/gis/usng/"
    }
  },
  {
    "type": "Feature",
    "geometry": {
       "type": "Point",
       "coordinates":  [ -100.4054,48.3458 ]
    },
    "properties": {
    "name":"Towner",
    "description":"Towner",
    "ST_ABBV":"ND",
    "TYPE":"City",
    "type":2,
    "MapBook":"Y",
    "LinkBook":"https://hub.sharedgeo.org/projects/USNG/data/USNG_Atlases/North_Dakota_Atlases/Towner_ND_Atlas_18March2011.zip",
    "SrcLink":"https://hub.sharedgeo.org/projects/USNG/data/USNG_Atlases/"
    }
  },
  {
    "type": "Feature",
    "geometry": {
       "type": "Point",
       "coordinates":  [ -98.0032,46.9233 ]
    },
    "properties": {
    "name":"Valley City",
    "description":"Valley City",
    "ST_ABBV":"ND",
    "TYPE":"City",
    "type":2,
    "MapBook":"Y",
    "LinkBook":"https://hub.sharedgeo.org/projects/USNG/data/USNG_Atlases/North_Dakota_Atlases/ValleyCity_ND_Atlas_18March2011.zip",
    "SrcLink":"https://hub.sharedgeo.org/projects/USNG/data/USNG_Atlases/"
    }
  },
  {
    "type": "Feature",
    "geometry": {
       "type": "Point",
       "coordinates":  [ -100.9293,48.0561 ]
    },
    "properties": {
    "name":"Velva",
    "description":"Velva",
    "ST_ABBV":"ND",
    "TYPE":"City",
    "type":2,
    "MapBook":"Y",
    "LinkBook":"https://hub.sharedgeo.org/projects/USNG/data/USNG_Atlases/North_Dakota_Atlases/Velva_ND_atlas_18March2011.zip",
    "SrcLink":"https://hub.sharedgeo.org/projects/USNG/data/USNG_Atlases/"
    }
  },
  {
    "type": "Feature",
    "geometry": {
       "type": "Point",
       "coordinates":  [ -75.978,36.8529 ]
    },
    "properties": {
    "name":"Virginia Beach",
    "description":"Virginia Beach",
    "ST_ABBV":"VA",
    "TYPE":"City",
    "type":2,
    "MapBook":"Y",
    "LinkBook":"https://hub.sharedgeo.org/projects/USNG/data/USNG_Atlases/Virginia_Atlases/Atlas_VirginiaBeach_VA_USNG_26Aug2011.zip",
    "SrcLink":"https://hub.sharedgeo.org/projects/USNG/data/USNG_Atlases/"
    }
  },
  {
    "type": "Feature",
    "geometry": {
       "type": "Point",
       "coordinates":  [ -96.6059,46.2652 ]
    },
    "properties": {
    "name":"Wahpeton",
    "description":"Wahpeton",
    "ST_ABBV":"ND",
    "TYPE":"City",
    "type":2,
    "MapBook":"Y",
    "LinkBook":"https://hub.sharedgeo.org/projects/USNG/data/USNG_Atlases/North_Dakota_Atlases/Wahpeton_ND_Atlas_18March2011.zip",
    "SrcLink":"https://hub.sharedgeo.org/projects/USNG/data/USNG_Atlases/"
    }
  },
  {
    "type": "Feature",
    "geometry": {
       "type": "Point",
       "coordinates":  [ -77.0369,38.9072 ]
    },
    "properties": {
    "name":"Washington",
    "description":"Washington DC",
    "ST_ABBV":"DC",
    "TYPE":"Area",
    "type":3,
    "MapBook":"Y",
    "LinkBook":"https://hub.sharedgeo.org/projects/USNG/data/USNG_Atlases/National_Capital_Region/NCR_Atlas_Complete_Map_Book_24k_6k_USNG_Ed29March2010/",
    "SrcLink":"https://hub.sharedgeo.org/projects/USNG/data/USNG_Atlases/"
    }
  },
  {
    "type": "Feature",
    "geometry": {
       "type": "Point",
       "coordinates":  [ -93.09,44.9537 ]
    },
    "properties": {
    "name":"West St. Paul",
    "description":"West St. Paul",
    "ST_ABBV":"MN",
    "TYPE":"City",
    "type":2,
    "MapBook":"Y",
    "LinkBook":"http://gis.co.dakota.mn.us/content/dakco/usng/1kfireortho/WestStPaul.pdf",
    "SrcLink":"http://gis.co.dakota.mn.us/content/dakco/USNG/er/maps.htm"
    }
  },
  {
    "type": "Feature",
    "geometry": {
       "type": "Point",
       "coordinates":  [ -100.279,47.1408 ]
    },
    "properties": {
    "name":"Flood Risk",
    "description":"Wing",
    "ST_ABBV":"ND",
    "TYPE":"Area",
    "type":3,
    "MapBook":"Y",
    "LinkBook":"https://hub.sharedgeo.org/projects/USNG/data/USNG_Atlases/North_Dakota_Atlases/NorthDakotaFloodRiskAreas_Atlas_18March2011.zip",
    "SrcLink":"https://hub.sharedgeo.org/projects/USNG/data/USNG_Atlases/"
    }
  },
  {
    "type": "Feature",
    "geometry": {
       "type": "Point",
       "coordinates":  [ -90.1994,38.627 ]
    },
    "properties": {
    "name":"St. Louis",
    "description":"St. Louis City",
    "ST_ABBV":"MO",
    "TYPE":"City",
    "type":2,
    "MapBook":"Y",
    "LinkBook":"ftp://msdis.missouri.edu/pub/mapbooks/St_Louis_City_MO_Atlas_20Oct2010.zip",
    "SrcLink":"https://emgis.oa.mo.gov/dps/mapbooks/"
    }
  }
]
}
